{"type":"FeatureCollection","features":[{"type":"Feature","properties":{"name":"Las Animas","audio_link":"","marker-color":"#7682db","marker-size":"medium","marker-symbol":"circle-stroked"},"geometry":{"coordinates":[-73.22369286156739,-39.81403894460166],"type":"Point"}},{"type":"Feature","properties":{"name":"Parque Saval","audio_link":"","marker-color":"#148f16","marker-size":"medium","marker-symbol":"circle-stroked"},"geometry":{"coordinates":[-73.25770104131489,-39.804866778117436],"type":"Point"}},{"type":"Feature","properties":{"name":"Chacabuco","audio_link":"https://youtu.be/tcX3yuKHRHA","marker-color":"#7682db","marker-size":"medium","marker-symbol":"circle-stroked"},"geometry":{"coordinates":[-73.24458343389375,-39.81313607010775],"type":"Point"}},{"type":"Feature","properties":{"name":"Puente Pedro de Valdivia","audio_link":"https://youtu.be/6lwYcG2bYzA","marker-color":"#0ed4fb","marker-size":"medium","marker-symbol":"circle-stroked"},"geometry":{"coordinates":[-73.24933017157836,-39.81143678223297],"type":"Point"}},{"type":"Feature","properties":{"name":"Plaza Simon Bolivar","audio_link":"","marker-color":"#a600ff","marker-size":"medium","marker-symbol":"circle-stroked"},"geometry":{"coordinates":[-73.23137387922009,-39.819351541897184],"type":"Point"},"id":4},{"type":"Feature","properties":{"name":"Independencia","audio_link":"","marker-color":"#7682db","marker-size":"medium","marker-symbol":"circle-stroked"},"geometry":{"coordinates":[-73.24654597304975,-39.8126203282109],"type":"Point"}},{"type":"Feature","properties":{"name":"Plaza de la República","audio_link":"","marker-color":"#a600ff","marker-size":"medium","marker-symbol":"circle-stroked"},"geometry":{"coordinates":[-73.24584530451722,-39.8139995628766],"type":"Point"},"id":6},{"type":"Feature","properties":{"name":"Población Beneficiencia","audio_link":"","marker-color":"#7682db","marker-size":"medium","marker-symbol":"circle-stroked"},"geometry":{"coordinates":[-73.23840931975161,-39.81960974702903],"type":"Point"}},{"type":"Feature","properties":{"name":"Oettinger","audio_link":"","marker-color":"#7682db","marker-size":"medium","marker-symbol":"circle-stroked"},"geometry":{"coordinates":[-73.25325121495001,-39.81024877823823],"type":"Point"}},{"type":"Feature","properties":{"name":"Parque Prochelle","audio_link":"","marker-color":"#148f16","marker-size":"medium","marker-symbol":"circle-stroked"},"geometry":{"coordinates":[-73.25058419518432,-39.81161615511744],"type":"Point"}},{"type":"Feature","properties":{"name":"Laguna de Los Patos","audio_link":"","marker-color":"#148f16","marker-size":"medium","marker-symbol":"circle-stroked"},"geometry":{"coordinates":[-73.2560716439699,-39.80980675494403],"type":"Point"}},{"type":"Feature","properties":{"name":"Arboretum","audio_link":"","marker-color":"#148f16","marker-size":"medium","marker-symbol":"circle-stroked"},"geometry":{"coordinates":[-73.26274722519938,-39.80182248561147],"type":"Point"}},{"type":"Feature","properties":{"name":"Parque Rocura","audio_link":"","marker-color":"#148f16","marker-size":"medium","marker-symbol":"circle-stroked"},"geometry":{"coordinates":[-73.21432659323204,-39.8094511225589],"type":"Point"}},{"type":"Feature","properties":{"name":"Parque Costanera","audio_link":"","marker-color":"#148f16","marker-size":"medium","marker-symbol":"circle-stroked"},"geometry":{"coordinates":[-73.24893825701386,-39.81503753147654],"type":"Point"}},{"type":"Feature","properties":{"name":"Arauco","audio_link":"","marker-color":"#7682db","marker-size":"medium","marker-symbol":"circle-stroked"},"geometry":{"coordinates":[-73.24510407146212,-39.815352192373894],"type":"Point"}},{"type":"Feature","properties":{"name":"Vicente Pérez Rosales","audio_link":"","marker-color":"#7682db","marker-size":"medium","marker-symbol":"circle-stroked"},"geometry":{"coordinates":[-73.24662172878159,-39.81558049556008],"type":"Point"}},{"type":"Feature","properties":{"name":"Avenida Arturo Prat","audio_link":"","marker-color":"#3381ff","marker-size":"medium","marker-symbol":"circle-stroked"},"geometry":{"coordinates":[-73.2483428596894,-39.813607443542594],"type":"Point"}},{"type":"Feature","properties":{"name":"Esmeralda","audio_link":"","marker-color":"#7682db","marker-size":"medium","marker-symbol":"circle-stroked"},"geometry":{"coordinates":[-73.2434233584816,-39.816636260664],"type":"Point"}},{"type":"Feature","properties":{"name":"Beauchef","audio_link":"","marker-color":"#7682db","marker-size":"medium","marker-symbol":"circle-stroked"},"geometry":{"coordinates":[-73.24156831025887,-39.81764315914885],"type":"Point"}},{"type":"Feature","properties":{"name":"Puente Cau Cau","audio_link":"","marker-color":"#0ed4fb","marker-size":"medium","marker-symbol":"circle-stroked"},"geometry":{"coordinates":[-73.25216537606015,-39.801018238765465],"type":"Point"}},{"type":"Feature","properties":{"name":"Avenida España","audio_link":"","marker-color":"#327ffb","marker-size":"medium","marker-symbol":"circle-stroked"},"geometry":{"coordinates":[-73.22994351655004,-39.8126831545551],"type":"Point"}},{"type":"Feature","properties":{"name":"Terrapuerto Valdivia","audio_link":"","marker-color":"#ff0000","marker-size":"medium","marker-symbol":"circle-stroked"},"geometry":{"coordinates":[-73.23591240908662,-39.814745580737046],"type":"Point"}},{"type":"Feature","properties":{"name":"Puente Santa Elvira","audio_link":"","marker-color":"#0ed4fb","marker-size":"medium","marker-symbol":"circle-stroked"},"geometry":{"coordinates":[-73.20688037124296,-39.79158757185392],"type":"Point"},"id":22},{"type":"Feature","properties":{"name":"German Saelzer","audio_link":"","marker-color":"#7682db","marker-size":"medium","marker-symbol":"circle-stroked"},"geometry":{"coordinates":[-73.25384158810739,-39.80981812152717],"type":"Point"}},{"type":"Feature","properties":{"name":"Avenida Los Robles","audio_link":"","marker-color":"#3381ff","marker-size":"medium","marker-symbol":"circle-stroked"},"geometry":{"coordinates":[-73.25382707845047,-39.81063431420542],"type":"Point"}},{"type":"Feature","properties":{"name":"Plaza de los Jubilados","audio_link":"","marker-color":"#a600ff","marker-size":"medium","marker-symbol":"circle-stroked"},"geometry":{"coordinates":[-73.25722695931235,-39.81511330720711],"type":"Point"},"id":25},{"type":"Feature","properties":{"name":"Carlos Anwandter","audio_link":"","marker-color":"#7682db","marker-size":"medium","marker-symbol":"circle-stroked"},"geometry":{"coordinates":[-73.23939588880741,-39.81276900738915],"type":"Point"}},{"type":"Feature","properties":{"name":"Ex Carcel de Isla Teja","audio_link":"","marker-color":"#ff0000","marker-size":"medium","marker-symbol":"circle-stroked"},"geometry":{"coordinates":[-73.263222152431,-39.813141140035704],"type":"Point"},"id":27},{"type":"Feature","properties":{"name":"Anibal Pinto","audio_link":"","marker-color":"#7682db","marker-size":"medium","marker-symbol":"circle-stroked"},"geometry":{"coordinates":[-73.24144451563821,-39.820636087663246],"type":"Point"}},{"type":"Feature","properties":{"name":"General Baquedano (Feria)","audio_link":"","marker-color":"#7682db","marker-size":"medium","marker-symbol":"circle-stroked"},"geometry":{"coordinates":[-73.2397195689111,-39.82248610894898],"type":"Point"}},{"type":"Feature","properties":{"name":"Catedral de Valdivia","audio_link":"","marker-color":"#ff0000","marker-size":"medium","marker-symbol":"circle-stroked"},"geometry":{"coordinates":[-73.24633468563087,-39.814001042065826],"type":"Point"}},{"type":"Feature","properties":{"name":"General Lagos","audio_link":"","marker-color":"#7682db","marker-size":"medium","marker-symbol":"circle-stroked"},"geometry":{"coordinates":[-73.24877926770624,-39.817734419055924],"type":"Point"}},{"type":"Feature","properties":{"name":"Villa Racachue","audio_link":"","marker-color":"#7682db","marker-size":"medium","marker-symbol":"circle-stroked"},"geometry":{"coordinates":[-73.24164289049496,-39.82580457465157],"type":"Point"}},{"type":"Feature","properties":{"name":"Plaza Juan B. Pastene","audio_link":"","marker-color":"#a600ff","marker-size":"medium","marker-symbol":"circle-stroked"},"geometry":{"coordinates":[-73.24774432115295,-39.820684322795145],"type":"Point"},"id":33},{"type":"Feature","properties":{"name":"Camilo Henriquez","audio_link":"","marker-color":"#7682db","marker-size":"medium","marker-symbol":"circle-stroked"},"geometry":{"coordinates":[-73.24520582973845,-39.81674304582308],"type":"Point"}},{"type":"Feature","properties":{"name":"Skater Park","audio_link":"","marker-color":"#a600ff","marker-size":"medium","marker-symbol":"circle-stroked"},"geometry":{"coordinates":[-73.22853183637817,-39.8327086923414],"type":"Point"},"id":35},{"type":"Feature","properties":{"name":"Villa Austral","audio_link":"","marker-color":"#7682db","marker-size":"medium","marker-symbol":"circle-stroked"},"geometry":{"coordinates":[-73.20162176470603,-39.840418221361716],"type":"Point"}},{"type":"Feature","properties":{"name":"Población Pablo Neruda","audio_link":"","marker-color":"#7682db","marker-size":"medium","marker-symbol":"circle-stroked"},"geometry":{"coordinates":[-73.22710948886561,-39.844935997120125],"type":"Point"}},{"type":"Feature","properties":{"name":"Villa la Estancia","audio_link":"","marker-color":"#7682db","marker-size":"medium","marker-symbol":"circle-stroked"},"geometry":{"coordinates":[-73.24999885403946,-39.850091270268656],"type":"Point"}},{"type":"Feature","properties":{"name":"Parque Urbano Catrico","audio_link":"","marker-color":"#148f16","marker-size":"medium","marker-symbol":"circle-stroked"},"geometry":{"coordinates":[-73.22694353707487,-39.84843235046274],"type":"Point"}},{"type":"Feature","properties":{"name":"Rotonda Pedro Montt","audio_link":"","marker-color":"#7682db","marker-size":"medium","marker-symbol":"circle-stroked"},"geometry":{"coordinates":[-73.23193490477975,-39.851051007081146],"type":"Point"}},{"type":"Feature","properties":{"name":"Parque portal del sol II","audio_link":"","marker-color":"#148f16","marker-size":"medium","marker-symbol":"circle-stroked"},"geometry":{"coordinates":[-73.2408209636155,-39.85012162206057],"type":"Point"}},{"type":"Feature","properties":{"name":"Corvi","audio_link":"","marker-color":"#7682db","marker-size":"medium","marker-symbol":"circle-stroked"},"geometry":{"coordinates":[-73.2110967048657,-39.831153533668214],"type":"Point"}},{"type":"Feature","properties":{"name":"Poblacion Eduardo Yáñez Zavala","audio_link":"","marker-color":"#7682db","marker-size":"medium","marker-symbol":"circle-stroked"},"geometry":{"coordinates":[-73.22895342834484,-39.84121520859467],"type":"Point"}},{"type":"Feature","properties":{"name":"Villa Los Fundadores","audio_link":"","marker-color":"#7682db","marker-size":"medium","marker-symbol":"circle-stroked"},"geometry":{"coordinates":[-73.23361396286101,-39.8495406106672],"type":"Point"}},{"type":"Feature","properties":{"name":"Villa Reina Victoria","audio_link":"","marker-color":"#7682db","marker-size":"medium","marker-symbol":"circle-stroked"},"geometry":{"coordinates":[-73.2071077804222,-39.84580897587607],"type":"Point"}},{"type":"Feature","properties":{"name":"Villa Las Américas","audio_link":"","marker-color":"#7682db","marker-size":"medium","marker-symbol":"circle-stroked"},"geometry":{"coordinates":[-73.20207703077072,-39.83735593031115],"type":"Point"}},{"type":"Feature","properties":{"name":"Inés de Suarez","audio_link":"","marker-color":"#7682db","marker-size":"medium","marker-symbol":"circle-stroked"},"geometry":{"coordinates":[-73.21129844761906,-39.82301909971254],"type":"Point"}},{"type":"Feature","properties":{"name":"Villa Cau Cau","audio_link":"","marker-color":"#7682db","marker-size":"medium","marker-symbol":"circle-stroked"},"geometry":{"coordinates":[-73.22321368117345,-39.84032368109891],"type":"Point"}},{"type":"Feature","properties":{"name":"Villa El Bosque","audio_link":"","marker-color":"#7682db","marker-size":"medium","marker-symbol":"circle-stroked"},"geometry":{"coordinates":[-73.23931250164169,-39.84353169897696],"type":"Point"}},{"type":"Feature","properties":{"name":"Villa Pedro Montt I","audio_link":"","marker-color":"#7682db","marker-size":"medium","marker-symbol":"circle-stroked"},"geometry":{"coordinates":[-73.23133703230351,-39.84421695920644],"type":"Point"}},{"type":"Feature","properties":{"name":"Rubén Dario","audio_link":"","marker-color":"#7682db","marker-size":"medium","marker-symbol":"circle-stroked"},"geometry":{"coordinates":[-73.2162530659059,-39.840764330761345],"type":"Point"}},{"type":"Feature","properties":{"name":"Villa Los Alcaldes","audio_link":"","marker-color":"#7682db","marker-size":"medium","marker-symbol":"circle-stroked"},"geometry":{"coordinates":[-73.22847895082577,-39.85165354308755],"type":"Point"}},{"type":"Feature","properties":{"name":"Villa Los Ediles","audio_link":"","marker-color":"#7682db","marker-size":"medium","marker-symbol":"circle-stroked"},"geometry":{"coordinates":[-73.22992108449374,-39.8531052547577],"type":"Point"}},{"type":"Feature","properties":{"name":"Villa Claro de Luna","audio_link":"","marker-color":"#7682db","marker-size":"medium","marker-symbol":"circle-stroked"},"geometry":{"coordinates":[-73.2304672011984,-39.85548303538025],"type":"Point"}},{"type":"Feature","properties":{"name":"Población San Pedro","audio_link":"","marker-color":"#7682db","marker-size":"medium","marker-symbol":"circle-stroked"},"geometry":{"coordinates":[-73.22380170815018,-39.849587874889224],"type":"Point"}},{"type":"Feature","properties":{"name":"Los Conquistadores","audio_link":"","marker-color":"#7682db","marker-size":"medium","marker-symbol":"circle-stroked"},"geometry":{"coordinates":[-73.21954987482528,-39.84906308449184],"type":"Point"}},{"type":"Feature","properties":{"name":"Barrio Santa Helena","audio_link":"","marker-color":"#7682db","marker-size":"medium","marker-symbol":"circle-stroked"},"geometry":{"coordinates":[-73.21414905988742,-39.850738941993555],"type":"Point"}},{"type":"Feature","properties":{"name":"Villa Angachilla","audio_link":"","marker-color":"#7682db","marker-size":"medium","marker-symbol":"circle-stroked"},"geometry":{"coordinates":[-73.21642266189814,-39.847173896892336],"type":"Point"}},{"type":"Feature","properties":{"name":"Villa Portal del Sol","audio_link":"","marker-color":"#7682db","marker-size":"medium","marker-symbol":"circle-stroked"},"geometry":{"coordinates":[-73.2355295859507,-39.851909015414925],"type":"Point"}},{"type":"Feature","properties":{"name":"Simon Bolivar","audio_link":"","marker-color":"#7682db","marker-size":"medium","marker-symbol":"circle-stroked"},"geometry":{"coordinates":[-73.20757729878814,-39.820222974284555],"type":"Point"}},{"type":"Feature","properties":{"name":"Collico","audio_link":"","marker-color":"#7682db","marker-size":"medium","marker-symbol":"circle-stroked"},"geometry":{"coordinates":[-73.20910238533698,-39.80621455693617],"type":"Point"}},{"type":"Feature","properties":{"name":"Arica","audio_link":"","marker-color":"#327ffb","marker-size":"medium","marker-symbol":"circle-stroked"},"geometry":{"coordinates":[-73.25785710678784,-39.83788420949105],"type":"Point"}},{"type":"Feature","properties":{"name":"Camino a puerto las mulatas","audio_link":"","marker-color":"#7682db","marker-size":"medium","marker-symbol":"circle-stroked"},"geometry":{"coordinates":[-73.26129206392432,-39.84020048095248],"type":"Point"}},{"type":"Feature","properties":{"name":"Circunvalacion nueva region","audio_link":"","marker-color":"#3381ff","marker-size":"medium","marker-symbol":"circle-stroked"},"geometry":{"coordinates":[-73.24791011401705,-39.852014412069956],"type":"Point"}},{"type":"Feature","properties":{"name":"Estadio Felix Gallardo","audio_link":"","marker-color":"#ff0000","marker-size":"medium","marker-symbol":"circle-stroked"},"geometry":{"coordinates":[-73.21484257747156,-39.83217532974511],"type":"Point"}},{"type":"Feature","properties":{"name":"Altos de Mahuiza II","audio_link":"","marker-color":"#7682db","marker-size":"medium","marker-symbol":"circle-stroked"},"geometry":{"coordinates":[-73.24345487406332,-39.85215131103978],"type":"Point"}},{"type":"Feature","properties":{"name":"Villa Galilea","audio_link":"","marker-color":"#7682db","marker-size":"medium","marker-symbol":"circle-stroked"},"geometry":{"coordinates":[-73.24175999492347,-39.85644382481414],"type":"Point"}},{"type":"Feature","properties":{"name":"Alto Guacamayo","audio_link":"","marker-color":"#7682db","marker-size":"medium","marker-symbol":"circle-stroked"},"geometry":{"coordinates":[-73.25111507819913,-39.85261299130375],"type":"Point"}},{"type":"Feature","properties":{"name":"Altos de Mahuiza I","audio_link":"","marker-color":"#7682db","marker-size":"medium","marker-symbol":"circle-stroked"},"geometry":{"coordinates":[-73.24569378340243,-39.848633257370594],"type":"Point"}},{"type":"Feature","properties":{"name":"Feria Guacamayo Miercoles","audio_link":"","marker-color":"#e8ba11","marker-size":"medium","marker-symbol":"circle-stroked"},"geometry":{"coordinates":[-73.24906949698115,-39.85114910057358],"type":"Point"}},{"type":"Feature","properties":{"name":"Feria Menzel Domingo","audio_link":"","marker-color":"#e8ba11","marker-size":"medium","marker-symbol":"circle-stroked"},"geometry":{"coordinates":[-73.21372965727944,-39.827360697387974],"type":"Point"}},{"type":"Feature","properties":{"name":"Feria San Luis Viernes y Sábado","audio_link":"","marker-color":"#e8ba11","marker-size":"medium","marker-symbol":"circle-stroked"},"geometry":{"coordinates":[-73.22087474737681,-39.84456184673996],"type":"Point"}},{"type":"Feature","properties":{"name":"Feria Guacamayo Jueves","audio_link":"","marker-color":"#e8ba11","marker-size":"medium","marker-symbol":"circle-stroked"},"geometry":{"coordinates":[-73.24920258458461,-39.85415407446035],"type":"Point"}},{"type":"Feature","properties":{"name":"Reserva Natural Urbana Angachilla","audio_link":"","marker-color":"#148f16","marker-size":"medium","marker-symbol":"circle-stroked"},"geometry":{"coordinates":[-73.23425034432276,-39.85625586130291],"type":"Point"}},{"type":"Feature","properties":{"name":"Parque Urbano El Bosque","audio_link":"","marker-color":"#148f16","marker-size":"medium","marker-symbol":"circle-stroked"},"geometry":{"coordinates":[-73.24477784828657,-39.84015936388752],"type":"Point"}},{"type":"Feature","properties":{"name":"Parque Municipal Guillermo Harnecker","audio_link":"","marker-color":"#148f16","marker-size":"medium","marker-symbol":"circle-stroked"},"geometry":{"coordinates":[-73.23478238627445,-39.821099144147674],"type":"Point"}},{"type":"Feature","properties":{"name":"Universidad Austral","audio_link":"","marker-color":"#ff0000","marker-size":"medium","marker-symbol":"circle-stroked"},"geometry":{"coordinates":[-73.25158995034143,-39.80892285862208],"type":"Point"}},{"type":"Feature","properties":{"name":"Parque Krahmer","audio_link":"","marker-color":"#148f16","marker-size":"medium","marker-symbol":"circle-stroked"},"geometry":{"coordinates":[-73.22826588275908,-39.83133104655143],"type":"Point"}},{"type":"Feature","properties":{"name":"Reserva Natural Urbanana Quebrada de Huachocopihue","audio_link":"","marker-color":"#148f16","marker-size":"medium","marker-symbol":"circle-stroked"},"geometry":{"coordinates":[-73.24129796849412,-39.83483824131799],"type":"Point"}},{"type":"Feature","properties":{"name":"Parque Londres","audio_link":"","marker-color":"#148f16","marker-size":"medium","marker-symbol":"circle-stroked"},"geometry":{"coordinates":[-73.23881513973753,-39.83889539597502],"type":"Point"}},{"type":"Feature","properties":{"name":"Humedal Miraflores","audio_link":"","marker-color":"#148f16","marker-size":"medium","marker-symbol":"circle-stroked"},"geometry":{"coordinates":[-73.24423943353702,-39.83339884064372],"type":"Point"}},{"type":"Feature","properties":{"name":"Parque Santa Inés","audio_link":"","marker-color":"#148f16","marker-size":"medium","marker-symbol":"circle-stroked"},"geometry":{"coordinates":[-73.2569606708934,-39.81091115690472],"type":"Point"}},{"type":"Feature","properties":{"name":"Jardin Botánico UACh","audio_link":"","marker-color":"#148f16","marker-size":"medium","marker-symbol":"circle-stroked"},"geometry":{"coordinates":[-73.25055249008352,-39.80481591152468],"type":"Point"}},{"type":"Feature","properties":{"name":"Islote Haverbeck","audio_link":"","marker-color":"#148f16","marker-size":"medium","marker-symbol":"circle-stroked"},"geometry":{"coordinates":[-73.25448347487257,-39.82964058586308],"type":"Point"}},{"type":"Feature","properties":{"name":"Avenida Ramón Picarte","audio_link":"","marker-color":"#3381ff","marker-size":"medium","marker-symbol":"circle-stroked"},"geometry":{"coordinates":[-73.22849824165095,-39.82319961038707],"type":"Point"}},{"type":"Feature","properties":{"name":"Avenida Alemania","audio_link":"","marker-color":"#3381ff","marker-size":"medium","marker-symbol":"circle-stroked"},"geometry":{"coordinates":[-73.24199913005158,-39.812902987000975],"type":"Point"}},{"type":"Feature","properties":{"name":"Estadio Municipal de Valdivia","audio_link":"","marker-color":"#ff0000","marker-size":"medium","marker-symbol":"circle-stroked"},"geometry":{"coordinates":[-73.23333425740678,-39.82085356791896],"type":"Point"}},{"type":"Feature","properties":{"name":"Coliseo Municipal Antonio Azurmendy Riveros","audio_link":"","marker-color":"#ff0000","marker-size":"medium","marker-symbol":"circle-stroked"},"geometry":{"coordinates":[-73.23175339669704,-39.82017510558223],"type":"Point"}},{"type":"Feature","properties":{"name":"Puente Calle Calle","audio_link":"","marker-color":"#0ed4fb","marker-size":"medium","marker-symbol":"circle-stroked"},"geometry":{"coordinates":[-73.22868694524438,-39.818107964492796],"type":"Point"}},{"type":"Feature","properties":{"name":"Hospital Regional de Valdivia","audio_link":"","marker-color":"#ff0000","marker-size":"medium","marker-symbol":"circle-stroked"},"geometry":{"coordinates":[-73.2394842764721,-39.832667594341125],"type":"Point"}},{"type":"Feature","properties":{"name":"Paseo Costanera","audio_link":"https://youtu.be/XtRy9VErp1Q","marker-color":"#ff0000","marker-size":"medium","marker-symbol":"circle-stroked"},"geometry":{"coordinates":[-73.24683722716654,-39.81033537344873],"type":"Point"}},{"type":"Feature","properties":{"name":"Feria Fluvial","audio_link":"","marker-color":"#e8ba11","marker-size":"medium","marker-symbol":"circle-stroked"},"geometry":{"coordinates":[-73.24831309773771,-39.812772004674855],"type":"Point"}},{"type":"Feature","properties":{"name":"Mercado Municipal","audio_link":"","marker-color":"#ff0000","marker-size":"medium","marker-symbol":"circle-stroked"},"geometry":{"coordinates":[-73.24760348193617,-39.81298295885241],"type":"Point"}},{"type":"Feature","properties":{"name":"Avenida Francia","audio_link":"","marker-color":"#3381ff","marker-size":"medium","marker-symbol":"circle-stroked"},"geometry":{"coordinates":[-73.23125714117697,-39.83789172533983],"type":"Point"}},{"type":"Feature","properties":{"name":"Avenida Pedro Montt","audio_link":"","marker-color":"#3381ff","marker-size":"medium","marker-symbol":"circle-stroked"},"geometry":{"coordinates":[-73.23396457926525,-39.82210180992972],"type":"Point"}},{"type":"Feature","properties":{"name":"Avenida Ecuador","audio_link":"","marker-color":"#3381ff","marker-size":"medium","marker-symbol":"circle-stroked"},"geometry":{"coordinates":[-73.22003675114023,-39.824342781176696],"type":"Point"}},{"type":"Feature","properties":{"name":"Avenida Italia","audio_link":"","marker-color":"#3381ff","marker-size":"medium","marker-symbol":"circle-stroked"},"geometry":{"coordinates":[-73.23759275996683,-39.835511096660284],"type":"Point"}},{"type":"Feature","properties":{"name":"Avenida Simpson","audio_link":"","marker-color":"#3381ff","marker-size":"medium","marker-symbol":"circle-stroked"},"geometry":{"coordinates":[-73.23905777466703,-39.832509092376846],"type":"Point"}},{"type":"Feature","properties":{"name":"Puente Río Cruces","audio_link":"","marker-color":"#0ed4fb","marker-size":"medium","marker-symbol":"circle-stroked"},"geometry":{"coordinates":[-73.26521971879016,-39.82523971415886],"type":"Point"}},{"type":"Feature","properties":{"name":"Avenida Argentina","audio_link":"","marker-color":"#3381ff","marker-size":"medium","marker-symbol":"circle-stroked"},"geometry":{"coordinates":[-73.21228706997414,-39.82450943875815],"type":"Point"}},{"type":"Feature","properties":{"name":"Muelle Schuster","audio_link":"","marker-color":"#a600ff","marker-size":"medium","marker-symbol":"circle-stroked"},"geometry":{"coordinates":[-73.2508732041732,-39.81424290206385],"type":"Point"},"id":101},{"type":"Feature","properties":{"name":"Feria Baquedano Martes","audio_link":"","marker-color":"#e8ba11","marker-size":"medium","marker-symbol":"circle-stroked"},"geometry":{"coordinates":[-73.24746791664457,-39.822830310137796],"type":"Point"},"id":102}]}